{
    "features": [
      {
        "type": "Feature",
        "properties": {
          "LOCATION_ID": "4793863",
          "LOCATION_NUMBER": "50870",
          "text": "N Champion Ave",
          "Address": "240 NORTH CHAMPION AVENUE",
          "Phone": "(614) 372-0884"
        },
        "geometry": {
          "coordinates": [
            -82.968669,
            39.972623
          ],
          "type": "Point"
        },
        "id": "0002c205168e8e46179ca95fa05080da"
      },
      {
        "type": "Feature",
        "properties": {
          "LOCATION_ID": "3546506",
          "LOCATION_NUMBER": "90305",
          "text": "East Broad Street",
          "Address": "1000 EAST BROAD STREET",
          "Phone": "none"
        },
        "geometry": {
          "coordinates": [
            -82.97465,
            39.965476
          ],
          "type": "Point"
        },
        "id": "006b334635e66e75da13763c612ee823"
      },
      {
        "type": "Feature",
        "properties": {
          "LOCATION_ID": "31410",
          "LOCATION_NUMBER": "31410",
          "text": "South Third Street",
          "Address": "175 SOUTH THIRD STREET",
          "Phone": "(614) 280-1984"
        },
        "geometry": {
          "coordinates": [
            -82.99747,
            39.958945
          ],
          "type": "Point"
        },
        "id": "006c9a404ff1789b01b61668202c5844"
      },
      {
        "type": "Feature",
        "properties": {
          "LOCATION_ID": "3691717",
          "LOCATION_NUMBER": "90425",
          "text": "Indianola Avenue",
          "Address": "4120 INDIANOLA AVE.",
          "Phone": "none"
        },
        "geometry": {
          "coordinates": [
            -82.999475,
            40.048537
          ],
          "type": "Point"
        },
        "id": "0084a61b1f1a042cf973730e839e089e"
      },
      {
        "type": "Feature",
        "properties": {
          "LOCATION_ID": "3826797",
          "LOCATION_NUMBER": "31386",
          "text": "South High Street",
          "Address": "77 SOUTH HIGH STREET",
          "Phone": "(888) 404-4674"
        },
        "geometry": {
          "coordinates": [
            -83.000627,
            39.960286
          ],
          "type": "Point"
        },
        "id": "009859c908a88b23c6b80cb8e455cb12"
      },
      {
        "type": "Feature",
        "properties": {
          "LOCATION_ID": "16902",
          "LOCATION_NUMBER": "16902",
          "text": "S Hamilton Rd",
          "Address": "205 NORTH HAMILTON ROAD",
          "Phone": "(614) 575-3500"
        },
        "geometry": {
          "coordinates": [
            -82.87338,
            39.980379
          ],
          "type": "Point"
        },
        "id": "00a5015ecda8cba36d7092932e5525f0"
      },
      {
        "type": "Feature",
        "properties": {
          "LOCATION_ID": "12301",
          "LOCATION_NUMBER": "12301",
          "text": "Perry Street",
          "Address": "1531 PERRY STREET",
          "Phone": "(614) 421-1131"
        },
        "geometry": {
          "coordinates": [
            -83.01884,
            39.991939
          ],
          "type": "Point"
        },
        "id": "00a903d9c3321edcd44d3f3e0cb33cf1"
      },
      {
        "type": "Feature",
        "properties": {
          "LOCATION_ID": "2535927",
          "LOCATION_NUMBER": "45360",
          "text": "Hunter Avenue",
          "Address": "1132 HUNTER AVE.",
          "Phone": "(614) 544-5756"
        },
        "geometry": {
          "coordinates": [
            -83.009363,
            39.984922
          ],
          "type": "Point"
        },
        "id": "00b31f7f7795bfd00aaf19066484d6c5"
      },
      {
        "type": "Feature",
        "properties": {
          "LOCATION_ID": "101175",
          "LOCATION_NUMBER": "8703",
          "text": "Astor Avenue",
          "Address": "2115 ASTOR AVENUE",
          "Phone": "(614) 263-5006"
        },
        "geometry": {
          "coordinates": [
            -82.941816,
            39.952268
          ],
          "type": "Point"
        },
        "id": "00cdaac0f95a4ed3d3af616d5851f404"
      },
      {
        "type": "Feature",
        "properties": {
          "LOCATION_ID": "1152998",
          "LOCATION_NUMBER": "21705",
          "text": "West Broad Street",
          "Address": "2500 WEST BROAD STREET",
          "Phone": "(614) 275-4337"
        },
        "geometry": {
          "coordinates": [
            -83.067153,
            39.955556
          ],
          "type": "Point"
        },
        "id": "00e0188408712e02a4fc35d59b4805e9"
      },
      {
        "type": "Feature",
        "properties": {
          "LOCATION_ID": "45341",
          "LOCATION_NUMBER": "45341",
          "text": "Eastwind Drive",
          "Address": "1060 EASTWIND DRIVE",
          "Phone": "none"
        },
        "geometry": {
          "coordinates": [
            -82.918433,
            40.10296
          ],
          "type": "Point"
        },
        "id": "0101124c3626cf2765ab0797c21c8712"
      },
      {
        "type": "Feature",
        "properties": {
          "LOCATION_ID": "2984610",
          "LOCATION_NUMBER": "25020",
          "text": "King Ave",
          "Address": "299 KING AVENUE",
          "Phone": "(614) 424-6050"
        },
        "geometry": {
          "coordinates": [
            -83.01497,
            39.99039
          ],
          "type": "Point"
        },
        "id": "013932af28e9aa5c8245157f76162b8a"
      },
      {
        "type": "Feature",
        "properties": {
          "LOCATION_ID": "100780",
          "LOCATION_NUMBER": "5604",
          "text": "East Livingston Avenue",
          "Address": "3434 EAST LIVINGSTON",
          "Phone": "(614) 884-4400"
        },
        "geometry": {
          "coordinates": [
            -82.904465,
            39.94667
          ],
          "type": "Point"
        },
        "id": "01656c66ebef91c8c35594006df9ccef"
      },
      {
        "type": "Feature",
        "properties": {
          "LOCATION_ID": "3544257",
          "LOCATION_NUMBER": "90175",
          "text": "Hooverview Drive",
          "Address": "1226 HOOVERVIEW DRIVE",
          "Phone": "none"
        },
        "geometry": {
          "coordinates": [
            -82.88495,
            40.137593
          ],
          "type": "Point"
        },
        "id": "017d1f8b2c697f66bab316c471ad7676"
      },
      {
        "type": "Feature",
        "properties": {
          "LOCATION_ID": "1564010",
          "LOCATION_NUMBER": "7365",
          "text": "Beechmont Ave",
          "Address": "43 EAST MAIN STREET",
          "Phone": "(513) 947-7000"
        },
        "geometry": {
          "coordinates": [
            -84.214348,
            39.026352
          ],
          "type": "Point"
        },
        "id": "0196c32ab479d3577f6904da5df12524"
      },
      {
        "type": "Feature",
        "properties": {
          "LOCATION_ID": "2123781",
          "LOCATION_NUMBER": "5221",
          "text": "Sullivant Avenue",
          "Address": "2300 SULLIVANT AVENUE",
          "Phone": "(614) 358-3584"
        },
        "geometry": {
          "coordinates": [
            -83.060507,
            39.946147
          ],
          "type": "Point"
        },
        "id": "01a8f3e33d1d28c6a9f09e218bdc69ee"
      },
      {
        "type": "Feature",
        "properties": {
          "LOCATION_ID": "1423161",
          "LOCATION_NUMBER": "29440",
          "text": "Busch Boulevard",
          "Address": "6610 BUSCH BOULEVARD",
          "Phone": "(614) 888-4484"
        },
        "geometry": {
          "coordinates": [
            -82.992802,
            40.10037
          ],
          "type": "Point"
        },
        "id": "01acb39f825f32c87bdf9f9554c63269"
      },
      {
        "type": "Feature",
        "properties": {
          "LOCATION_ID": "4951620",
          "LOCATION_NUMBER": "2004",
          "text": "West Third Avenue",
          "Address": "810 WEST THIRD AVENUE",
          "Phone": "(614) 291-9411"
        },
        "geometry": {
          "coordinates": [
            -83.026731,
            39.984325
          ],
          "type": "Point"
        },
        "id": "01c9c66408fcdea1ad80fe0c413ecb7b"
      },
      {
        "type": "Feature",
        "properties": {
          "LOCATION_ID": "1442405",
          "LOCATION_NUMBER": "13465",
          "text": "Broad Street",
          "Address": "50 BROAD STREET, SUITE 1714",
          "Phone": "(212) 598-9995"
        },
        "geometry": {
          "coordinates": [
            -71.88017,
            41.79935
          ],
          "type": "Point"
        },
        "id": "01ccf525435a0a6accaa1da4ede3a78d"
      },
      {
        "type": "Feature",
        "properties": {
          "LOCATION_ID": "41640",
          "LOCATION_NUMBER": "41640",
          "text": "Hilton Corporate Drive",
          "Address": "4615 HILTON CORPORATE DRIVE",
          "Phone": "(614) 729-2024"
        },
        "geometry": {
          "coordinates": [
            -82.872292,
            39.934308
          ],
          "type": "Point"
        },
        "id": "0211f79f67ac045ba1f44009a6f07ace"
      },
      {
        "type": "Feature",
        "properties": {
          "LOCATION_ID": "20005",
          "LOCATION_NUMBER": "20005",
          "text": "Fairway Blvd",
          "Address": "175 FAIRWAY DRIVE",
          "Phone": "none"
        },
        "geometry": {
          "coordinates": [
            -82.87402,
            39.97241
          ],
          "type": "Point"
        },
        "id": "0216eaf4087dbf4d2e4b09222c4aefcb"
      },
      {
        "type": "Feature",
        "properties": {
          "LOCATION_ID": "15602",
          "LOCATION_NUMBER": "15601",
          "text": "N High St",
          "Address": "3400 NORTH HIGH STREET",
          "Phone": "(614) 294-2661"
        },
        "geometry": {
          "coordinates": [
            -83.01542,
            40.0312
          ],
          "type": "Point"
        },
        "id": "023b8009930803c3aa6d1e51ff827325"
      },
      {
        "type": "Feature",
        "properties": {
          "LOCATION_ID": "101410",
          "LOCATION_NUMBER": "9946",
          "text": "N Eureka Ave",
          "Address": "303 NORTH EUREKA AVENUE",
          "Phone": "(614) 645-3208"
        },
        "geometry": {
          "coordinates": [
            -83.068774,
            39.96226
          ],
          "type": "Point"
        },
        "id": "0253420ceb5d8aa3c013e46a3892d547"
      },
      {
        "type": "Feature",
        "properties": {
          "LOCATION_ID": "20891",
          "LOCATION_NUMBER": "20891",
          "text": "Dudley Avenue",
          "Address": "4330 DUDLEY AVENUE",
          "Phone": "(614) 277-1060"
        },
        "geometry": {
          "coordinates": [
            -83.092632,
            39.876345
          ],
          "type": "Point"
        },
        "id": "0256a40943df23ebed52c53dd65acb43"
      },
      {
        "type": "Feature",
        "properties": {
          "LOCATION_ID": "30174",
          "LOCATION_NUMBER": "30174",
          "text": "Dublin Road",
          "Address": "1370 DUBLIN ROAD",
          "Phone": "(614) 486-2700"
        },
        "geometry": {
          "coordinates": [
            -83.063233,
            39.982368
          ],
          "type": "Point"
        },
        "id": "028c5edc459b08ce6ad57088aea43d25"
      },
      {
        "type": "Feature",
        "properties": {
          "LOCATION_ID": "101284",
          "LOCATION_NUMBER": "7756",
          "text": "East Lane Avenue",
          "Address": "640 WEST LANE AVENUE",
          "Phone": "(614) 251-1122"
        },
        "geometry": {
          "coordinates": [
            -83.001972,
            40.005746
          ],
          "type": "Point"
        },
        "id": "030764077bcbbf7c198fedd1d3184e2a"
      },
      {
        "type": "Feature",
        "properties": {
          "LOCATION_ID": "1518077",
          "LOCATION_NUMBER": "9219",
          "text": "East Center Street",
          "Address": "47 EAST CENTER STREET",
          "Phone": "(419) 947-4041"
        },
        "geometry": {
          "coordinates": [
            -82.82756,
            40.548431
          ],
          "type": "Point"
        },
        "id": "030f6a491f5f2753997e3d81132f766e"
      },
      {
        "type": "Feature",
        "properties": {
          "LOCATION_ID": "21552",
          "LOCATION_NUMBER": "21552",
          "text": "Saint Clair Avenue",
          "Address": "870 SAINT CLAIR AVENUE",
          "Phone": "none"
        },
        "geometry": {
          "coordinates": [
            -82.979809,
            39.983114
          ],
          "type": "Point"
        },
        "id": "0322797099e9bd65d24b750d7c9d30de"
      },
      {
        "type": "Feature",
        "properties": {
          "LOCATION_ID": "1837114",
          "LOCATION_NUMBER": "386",
          "text": "N Garfield Ave",
          "Address": "168 NORTH GARFIELD AVENUE",
          "Phone": "(614) 260-0260"
        },
        "geometry": {
          "coordinates": [
            -82.979839,
            39.968241
          ],
          "type": "Point"
        },
        "id": "03263f53f5fda2948d6637561cc8822c"
      },
      {
        "type": "Feature",
        "properties": {
          "LOCATION_ID": "31115",
          "LOCATION_NUMBER": "31115",
          "text": "Karl Road",
          "Address": "5500 KARL ROAD",
          "Phone": "(614) 431-1739"
        },
        "geometry": {
          "coordinates": [
            -82.974016,
            40.07959
          ],
          "type": "Point"
        },
        "id": "0333f580265501f4e6f1ca14cd14e84e"
      },
      {
        "type": "Feature",
        "properties": {
          "LOCATION_ID": "7184761",
          "LOCATION_NUMBER": "34494",
          "text": "Brookham Drive",
          "Address": "3960 BROOKHAM DR",
          "Phone": "(614) 999-9999"
        },
        "geometry": {
          "coordinates": [
            -83.050357,
            39.882768
          ],
          "type": "Point"
        },
        "id": "033bcf7e4f0327bc977551e571f2f680"
      },
      {
        "type": "Feature",
        "properties": {
          "LOCATION_ID": "4438681",
          "LOCATION_NUMBER": "34801",
          "text": "Stimmel Road",
          "Address": "550 STIMMEL ROAD",
          "Phone": "(614) 443-0029"
        },
        "geometry": {
          "coordinates": [
            -83.010517,
            39.935619
          ],
          "type": "Point"
        },
        "id": "035106971b98e804fb474997c0902262"
      },
      {
        "type": "Feature",
        "properties": {
          "LOCATION_ID": "20875",
          "LOCATION_NUMBER": "20875",
          "text": "Main Street",
          "Address": "648 MAIN STREET",
          "Phone": "(614) 836-3333"
        },
        "geometry": {
          "coordinates": [
            -82.882569,
            39.851381
          ],
          "type": "Point"
        },
        "id": "0366be1d4fb548aa26a1f64fdf2e0ea4"
      },
      {
        "type": "Feature",
        "properties": {
          "LOCATION_ID": "101344",
          "LOCATION_NUMBER": "8954",
          "text": "Lockville Road",
          "Address": "100 LOCKVILLE ROAD",
          "Phone": "(614) 837-4116"
        },
        "geometry": {
          "coordinates": [
            -82.752053,
            39.881563
          ],
          "type": "Point"
        },
        "id": "03796fa5e62a9367b23ea11de47975ca"
      },
      {
        "type": "Feature",
        "properties": {
          "LOCATION_ID": "1076202",
          "LOCATION_NUMBER": "50351",
          "text": "E Long St",
          "Address": "1111 EAST LONG STREET",
          "Phone": "(614) 252-8219"
        },
        "geometry": {
          "coordinates": [
            -82.97223,
            39.96816
          ],
          "type": "Point"
        },
        "id": "03a7fea6605c1b972c6c1828bedc89fe"
      },
      {
        "type": "Feature",
        "properties": {
          "LOCATION_ID": "20703",
          "LOCATION_NUMBER": "20705",
          "text": "Cleveland Avenue",
          "Address": "6200 CLEVELAND AVENUE",
          "Phone": "(614) 566-0599"
        },
        "geometry": {
          "coordinates": [
            -82.947993,
            40.099992
          ],
          "type": "Point"
        },
        "id": "03cad32e07e76901fb56e6cae7c7f471"
      },
      {
        "type": "Feature",
        "properties": {
          "LOCATION_ID": "2514998",
          "LOCATION_NUMBER": "17805",
          "text": "43215",
          "Address": "18TH FLOOR",
          "Phone": "(614) 462-3930"
        },
        "geometry": {
          "coordinates": [
            107.15,
            -6.81
          ],
          "type": "Point"
        },
        "id": "03d1dda50f1a68f730921ba8717f8ce8"
      },
      {
        "type": "Feature",
        "properties": {
          "LOCATION_ID": "35650",
          "LOCATION_NUMBER": "35650",
          "text": "E Innis Ave",
          "Address": "310 INNIS AVENUE",
          "Phone": "none"
        },
        "geometry": {
          "coordinates": [
            -82.986835,
            39.926028
          ],
          "type": "Point"
        },
        "id": "03dfc2ddc8cdd9fc785561e24eb888a6"
      },
      {
        "type": "Feature",
        "properties": {
          "LOCATION_ID": "44770",
          "LOCATION_NUMBER": "44770",
          "text": "Tremont Road",
          "Address": "2800 TREMONT ROAD",
          "Phone": "(614) 486-9621"
        },
        "geometry": {
          "coordinates": [
            -83.067596,
            40.012874
          ],
          "type": "Point"
        },
        "id": "041e978ab5b32e625b7920c76eadfa4f"
      },
      {
        "type": "Feature",
        "properties": {
          "LOCATION_ID": "100927",
          "LOCATION_NUMBER": "35951",
          "text": "East Schrock Road",
          "Address": "100 EAST SCHROCK ROAD",
          "Phone": "none"
        },
        "geometry": {
          "coordinates": [
            -82.921628,
            40.109795
          ],
          "type": "Point"
        },
        "id": "043f40b89a6853870ea954a84b74521c"
      },
      {
        "type": "Feature",
        "properties": {
          "LOCATION_ID": "9925",
          "LOCATION_NUMBER": "9925",
          "text": "East Broad Street",
          "Address": "1111 EAST BROAD STREET",
          "Phone": "(614) 645-3300"
        },
        "geometry": {
          "coordinates": [
            -82.970882,
            39.965367
          ],
          "type": "Point"
        },
        "id": "046b7e8902e5cbaee63f7ad746bd7125"
      },
      {
        "type": "Feature",
        "properties": {
          "LOCATION_ID": "3478247",
          "LOCATION_NUMBER": "29903",
          "text": "North Fourth Street",
          "Address": "1950 NORTH 4TH STREET",
          "Phone": "(614) 297-0592"
        },
        "geometry": {
          "coordinates": [
            -82.997947,
            40.002913
          ],
          "type": "Point"
        },
        "id": "04a6e4e0f73a73e283241adf77f032a1"
      },
      {
        "type": "Feature",
        "properties": {
          "LOCATION_ID": "9768",
          "LOCATION_NUMBER": "9768",
          "text": "Cleveland Avenue",
          "Address": "2223 CLEVELAND AVENUE",
          "Phone": "(614) 645-2275"
        },
        "geometry": {
          "coordinates": [
            -82.968537,
            40.012286
          ],
          "type": "Point"
        },
        "id": "04c7a19e88bb8555bf13fab2cd53b313"
      },
      {
        "type": "Feature",
        "properties": {
          "LOCATION_ID": "5067473",
          "LOCATION_NUMBER": "50915",
          "text": "East Livingston Avenue",
          "Address": "200 EAST LIVINGSTON AVENUE",
          "Phone": "(614) 227-0301"
        },
        "geometry": {
          "coordinates": [
            -82.993454,
            39.952963
          ],
          "type": "Point"
        },
        "id": "04cca0a72741117282f65eec83c8a43f"
      },
      {
        "type": "Feature",
        "properties": {
          "LOCATION_ID": "2535792",
          "LOCATION_NUMBER": "35050",
          "text": "East Broad Street",
          "Address": "1393 E. BROAD ST.",
          "Phone": "(614) 645-5556"
        },
        "geometry": {
          "coordinates": [
            -82.964193,
            39.96602
          ],
          "type": "Point"
        },
        "id": "04d7c294a37434428e40545f2f920de2"
      },
      {
        "type": "Feature",
        "properties": {
          "LOCATION_ID": "3460067",
          "LOCATION_NUMBER": "34165",
          "text": "Thimble Shoals Boulevard",
          "Address": "700 THIMBLE SHOALS BOULEVARD",
          "Phone": "(866) 512-3861"
        },
        "geometry": {
          "coordinates": [
            -76.477127,
            37.084882
          ],
          "type": "Point"
        },
        "id": "04dc9a370215f76114dc9254c96c5b7f"
      },
      {
        "type": "Feature",
        "properties": {
          "LOCATION_ID": "4400",
          "LOCATION_NUMBER": "4400",
          "text": "East Dublin Granville Road",
          "Address": "3021 EAST DUBLIN GRANVILLE ROAD",
          "Phone": "(614) 942-2030"
        },
        "geometry": {
          "coordinates": [
            -82.936197,
            40.081134
          ],
          "type": "Point"
        },
        "id": "0503bc6f963b84ad40f4e25b284092e2"
      },
      {
        "type": "Feature",
        "properties": {
          "LOCATION_ID": "811500",
          "LOCATION_NUMBER": "48015",
          "text": "Liberty Rd N",
          "Address": "7798 LIBERTY ROAD, NORTH",
          "Phone": "(614) 839-9622"
        },
        "geometry": {
          "coordinates": [
            -83.07773,
            40.18819
          ],
          "type": "Point"
        },
        "id": "050f600c5f4a192a437c62228a99217a"
      },
      {
        "type": "Feature",
        "properties": {
          "LOCATION_ID": "3408709",
          "LOCATION_NUMBER": "6620",
          "text": "Delaware Avenue",
          "Address": "1069 DELAWARE AVENUE",
          "Phone": "(740) 387-7777"
        },
        "geometry": {
          "coordinates": [
            -83.122899,
            40.570482
          ],
          "type": "Point"
        },
        "id": "05243b79cc41e8366fe63999d0231add"
      },
      {
        "type": "Feature",
        "properties": {
          "LOCATION_ID": "100738",
          "LOCATION_NUMBER": "15817",
          "text": "Obetz Road",
          "Address": "1460 OBETZ ROAD",
          "Phone": "(614) 491-1013"
        },
        "geometry": {
          "coordinates": [
            -82.964013,
            39.875963
          ],
          "type": "Point"
        },
        "id": "053e39e09e094680ec3062531b148091"
      },
      {
        "type": "Feature",
        "properties": {
          "LOCATION_ID": "100647",
          "LOCATION_NUMBER": "26211",
          "text": "Green Avenue",
          "Address": "283 GREEN AVENUE",
          "Phone": "(614) 836-5867"
        },
        "geometry": {
          "coordinates": [
            -82.89359,
            39.848351
          ],
          "type": "Point"
        },
        "id": "0549dbf933eefc58932cefe5cfc30bc1"
      },
      {
        "type": "Feature",
        "properties": {
          "LOCATION_ID": "5051168",
          "LOCATION_NUMBER": "20321",
          "text": "Riverside Dr",
          "Address": "3588 RIVERSIDE DRIVE",
          "Phone": "(614) 583-0400"
        },
        "geometry": {
          "coordinates": [
            -83.09114,
            40.02629
          ],
          "type": "Point"
        },
        "id": "056a94ef1f7811db920415f677aa6032"
      },
      {
        "type": "Feature",
        "properties": {
          "LOCATION_ID": "101277",
          "LOCATION_NUMBER": "2001",
          "text": "East Cooke Road",
          "Address": "1915 EAST COOKE ROAD",
          "Phone": "(614) 447-0606"
        },
        "geometry": {
          "coordinates": [
            -82.964686,
            40.043698
          ],
          "type": "Point"
        },
        "id": "05712acb5e35c621af82d67a252daeab"
      },
      {
        "type": "Feature",
        "properties": {
          "LOCATION_ID": "1443375",
          "LOCATION_NUMBER": "45102",
          "text": "N Wilson Rd",
          "Address": "314 NORTH WILSON ROAD",
          "Phone": "(614) 308-1384"
        },
        "geometry": {
          "coordinates": [
            -83.089804,
            39.961804
          ],
          "type": "Point"
        },
        "id": "058112ba0538edded6460381c9de3f44"
      },
      {
        "type": "Feature",
        "properties": {
          "LOCATION_ID": "74000",
          "LOCATION_NUMBER": "74000",
          "text": "Reeb Avenue",
          "Address": "52 REEB AVENUE",
          "Phone": "none"
        },
        "geometry": {
          "coordinates": [
            -82.993874,
            39.9255
          ],
          "type": "Point"
        },
        "id": "058ac59c751216f68e8cedffc453181a"
      },
      {
        "type": "Feature",
        "properties": {
          "LOCATION_ID": "5477546",
          "LOCATION_NUMBER": "38705",
          "text": "East Gates Street",
          "Address": "225 EAST GATES STREET",
          "Phone": "none"
        },
        "geometry": {
          "coordinates": [
            -82.989339,
            39.937341
          ],
          "type": "Point"
        },
        "id": "058de660da7b7b1714e0ac9f95bd60a4"
      },
      {
        "type": "Feature",
        "properties": {
          "LOCATION_ID": "20704",
          "LOCATION_NUMBER": "20706",
          "text": "Hospital Drive",
          "Address": "6955 HOSPITAL DRIVE",
          "Phone": "(614) 566-3761"
        },
        "geometry": {
          "coordinates": [
            -83.161416,
            40.101027
          ],
          "type": "Point"
        },
        "id": "059fd8bc59f89e67b371e0dfc119101f"
      },
      {
        "type": "Feature",
        "properties": {
          "LOCATION_ID": "24002",
          "LOCATION_NUMBER": "24002",
          "text": "E Dublin Granville Rd",
          "Address": "150 EAST GRANVILLE ROAD",
          "Phone": "(614) 855-4885"
        },
        "geometry": {
          "coordinates": [
            -82.80456,
            40.0818
          ],
          "type": "Point"
        },
        "id": "05a20e410197f55a1ee6c7914c6f131e"
      },
      {
        "type": "Feature",
        "properties": {
          "LOCATION_ID": "26635",
          "LOCATION_NUMBER": "26635",
          "text": "Taylor Park Dr",
          "Address": "2225 TAYLOR PARK DRIVE",
          "Phone": "(614) 501-1460"
        },
        "geometry": {
          "coordinates": [
            -82.792473,
            39.938345
          ],
          "type": "Point"
        },
        "id": "05a6c2b90d85342c3b2b1a31e0dcab7b"
      },
      {
        "type": "Feature",
        "properties": {
          "LOCATION_ID": "39657",
          "LOCATION_NUMBER": "39657",
          "text": "E Main St",
          "Address": "966 EAST MAIN STREET, FIRST FLOOR",
          "Phone": "(614) 437-2153"
        },
        "geometry": {
          "coordinates": [
            -82.97226,
            39.95798
          ],
          "type": "Point"
        },
        "id": "05b9fecfa4cf2d4fef9423b3ca268162"
      },
      {
        "type": "Feature",
        "properties": {
          "LOCATION_ID": "344",
          "LOCATION_NUMBER": "25330",
          "text": "Manning Pkwy",
          "Address": "1490 MANNING PARK WAY",
          "Phone": "(614) 888-4564"
        },
        "geometry": {
          "coordinates": [
            -83.04203,
            40.13881
          ],
          "type": "Point"
        },
        "id": "05d0376f196863851be924d8bb341147"
      },
      {
        "type": "Feature",
        "properties": {
          "LOCATION_ID": "101271",
          "LOCATION_NUMBER": "10057",
          "text": "Mount Vernon Ave",
          "Address": "396 MOUNT VERNON AVENUE",
          "Phone": "(614) 287-3600"
        },
        "geometry": {
          "coordinates": [
            -82.99138,
            39.96936
          ],
          "type": "Point"
        },
        "id": "05d8960873548aa85b8b051bc906a574"
      },
      {
        "type": "Feature",
        "properties": {
          "LOCATION_ID": "395",
          "LOCATION_NUMBER": "395",
          "text": "Mason Road Northwest",
          "Address": "3500 MASON ROAD",
          "Phone": "(614) 837-6541"
        },
        "geometry": {
          "coordinates": [
            -82.771533,
            39.78526
          ],
          "type": "Point"
        },
        "id": "05e8cc4f9dcec84159db3b8bdf8ffb92"
      },
      {
        "type": "Feature",
        "properties": {
          "LOCATION_ID": "12300",
          "LOCATION_NUMBER": "12300",
          "text": "West Tenth Avenue",
          "Address": "150 WEST 10TH AVENUE",
          "Phone": "(614) 421-1226"
        },
        "geometry": {
          "coordinates": [
            -83.011256,
            39.994396
          ],
          "type": "Point"
        },
        "id": "060558fc35875539a7c5fa89c60d5b3e"
      },
      {
        "type": "Feature",
        "properties": {
          "LOCATION_ID": "100725",
          "LOCATION_NUMBER": "15804",
          "text": "Cleveland Avenue",
          "Address": "3820 CLEVELAND AVENUE",
          "Phone": "(614) 471-6854"
        },
        "geometry": {
          "coordinates": [
            -82.955846,
            40.046735
          ],
          "type": "Point"
        },
        "id": "0613b01661fc174f4580408008399967"
      },
      {
        "type": "Feature",
        "properties": {
          "LOCATION_ID": "100265",
          "LOCATION_NUMBER": "3656",
          "text": "Clyde Moore Drive",
          "Address": "5940 CLYDE MOORE DRIVE",
          "Phone": "(614) 836-5371"
        },
        "geometry": {
          "coordinates": [
            -82.901346,
            39.855629
          ],
          "type": "Point"
        },
        "id": "061bab6dfefc0fb232f797b4d5b5e0f6"
      },
      {
        "type": "Feature",
        "properties": {
          "LOCATION_ID": "38400",
          "LOCATION_NUMBER": "38400",
          "text": "Greenlawn Avenue",
          "Address": "880 GREENLAWN AVENUE",
          "Phone": "(614) 443-9433"
        },
        "geometry": {
          "coordinates": [
            -83.017444,
            39.940867
          ],
          "type": "Point"
        },
        "id": "067e7c255a076706481c4f7224c1801d"
      },
      {
        "type": "Feature",
        "properties": {
          "LOCATION_ID": "32125",
          "LOCATION_NUMBER": "32125",
          "text": "Morse Rd",
          "Address": "2045 MORSE ROAD",
          "Phone": "(614) 265-6565"
        },
        "geometry": {
          "coordinates": [
            -82.96446,
            40.05957
          ],
          "type": "Point"
        },
        "id": "067e8730b27bc5b7ca1bb2b2a4480952"
      },
      {
        "type": "Feature",
        "properties": {
          "LOCATION_ID": "1599999",
          "LOCATION_NUMBER": "5806",
          "text": "West Broad Street",
          "Address": "2872 WEST BROAD STREET",
          "Phone": "(614) 457-4570"
        },
        "geometry": {
          "coordinates": [
            -83.076952,
            39.955137
          ],
          "type": "Point"
        },
        "id": "068452ea7c701989b637b678deb1c512"
      },
      {
        "type": "Feature",
        "properties": {
          "LOCATION_ID": "1422132",
          "LOCATION_NUMBER": "28416",
          "text": "South Cleveland Avenue",
          "Address": "500 SOUTH CLEVELAND AVENUE",
          "Phone": "(614) 898-4000"
        },
        "geometry": {
          "coordinates": [
            -82.947169,
            40.11473
          ],
          "type": "Point"
        },
        "id": "069047a39a8f8ea14a11219a6cc56d4e"
      },
      {
        "type": "Feature",
        "properties": {
          "LOCATION_ID": "2547247",
          "LOCATION_NUMBER": "46675",
          "text": "West Main Street",
          "Address": "310 WEST MAIN STREET",
          "Phone": "(614) 901-6560"
        },
        "geometry": {
          "coordinates": [
            -82.943104,
            40.125652
          ],
          "type": "Point"
        },
        "id": "06a73828e4879f98157e296d620dc0b5"
      },
      {
        "type": "Feature",
        "properties": {
          "LOCATION_ID": "100733",
          "LOCATION_NUMBER": "15812",
          "text": "London Groveport Road",
          "Address": "2650 LONDON-GROVEPORT ROAD",
          "Phone": "(614) 277-1713"
        },
        "geometry": {
          "coordinates": [
            -83.076622,
            39.837923
          ],
          "type": "Point"
        },
        "id": "06a7e37bef9f1437d986b44974c65014"
      },
      {
        "type": "Feature",
        "properties": {
          "LOCATION_ID": "2514927",
          "LOCATION_NUMBER": "10080",
          "text": "Lazelle Rd",
          "Address": "117 LAZELLE ROAD EAST",
          "Phone": "(614) 885-3338"
        },
        "geometry": {
          "coordinates": [
            -83.015,
            40.13658
          ],
          "type": "Point"
        },
        "id": "06ba9e1d95a02f7b65c491a45883af82"
      },
      {
        "type": "Feature",
        "properties": {
          "LOCATION_ID": "101966",
          "LOCATION_NUMBER": "24705",
          "text": "Kilbourne Avenue",
          "Address": "2460 KILBOURNE AVENUE",
          "Phone": "(614) 235-1765"
        },
        "geometry": {
          "coordinates": [
            -82.952934,
            40.070003
          ],
          "type": "Point"
        },
        "id": "070ec70f102a84101457f515ff241aed"
      },
      {
        "type": "Feature",
        "properties": {
          "LOCATION_ID": "23750",
          "LOCATION_NUMBER": "23750",
          "text": "Hawthorne Avenue",
          "Address": "1520 HAWTHORNE AVENUE",
          "Phone": "(614) 252-4931"
        },
        "geometry": {
          "coordinates": [
            -82.960649,
            39.97058
          ],
          "type": "Point"
        },
        "id": "07241bb5aba0f23766564f82d3965cb3"
      },
      {
        "type": "Feature",
        "properties": {
          "LOCATION_ID": "10756",
          "LOCATION_NUMBER": "10756",
          "text": "East Main Street",
          "Address": "983 EAST MAIN STREET",
          "Phone": "(614) 257-0305"
        },
        "geometry": {
          "coordinates": [
            -82.973063,
            39.95776
          ],
          "type": "Point"
        },
        "id": "0745390a7a6f8e0fa62d53d9f803de92"
      },
      {
        "type": "Feature",
        "properties": {
          "LOCATION_ID": "804315",
          "LOCATION_NUMBER": "34941",
          "text": "South High Street",
          "Address": "373 SOUTH HIGH STREET",
          "Phone": "(614) 462-3333"
        },
        "geometry": {
          "coordinates": [
            -82.999358,
            39.953886
          ],
          "type": "Point"
        },
        "id": "075ba90d72a9b489ded072a45d62a032"
      },
      {
        "type": "Feature",
        "properties": {
          "LOCATION_ID": "3727262",
          "LOCATION_NUMBER": "10117",
          "text": "Taylor Avenue",
          "Address": "730 TAYLOR AVENUE",
          "Phone": "(866) 639-2364"
        },
        "geometry": {
          "coordinates": [
            -82.960456,
            39.981836
          ],
          "type": "Point"
        },
        "id": "077d955835674e85add57d217a2f1401"
      },
      {
        "type": "Feature",
        "properties": {
          "LOCATION_ID": "101351",
          "LOCATION_NUMBER": "33620",
          "text": "E Main St",
          "Address": "7094 EAST MAIN STREET",
          "Phone": "(614) 293-2940"
        },
        "geometry": {
          "coordinates": [
            -82.80938,
            39.95522
          ],
          "type": "Point"
        },
        "id": "07a3eb8a0680ac25e0d61e28f395eb4e"
      },
      {
        "type": "Feature",
        "properties": {
          "LOCATION_ID": "59840",
          "LOCATION_NUMBER": "59840",
          "text": "Cleveland Ave",
          "Address": "3330 Cleveland Avenue",
          "Phone": "none"
        },
        "geometry": {
          "coordinates": [
            -82.96336,
            40.03523
          ],
          "type": "Point"
        },
        "id": "07b6c3ff03e89126f29feb43faa83a24"
      },
      {
        "type": "Feature",
        "properties": {
          "LOCATION_ID": "13601",
          "LOCATION_NUMBER": "13601",
          "text": "West Broad Street",
          "Address": "5100 WEST BROAD STREET",
          "Phone": "(614) 544-1000"
        },
        "geometry": {
          "coordinates": [
            -83.137783,
            39.952395
          ],
          "type": "Point"
        },
        "id": "07d02e7a93d83e1a356cb5f8550bda1f"
      },
      {
        "type": "Feature",
        "properties": {
          "LOCATION_ID": "10076",
          "LOCATION_NUMBER": "10076",
          "text": "Sheffield Road",
          "Address": "176 SHEFFIELD ROAD",
          "Phone": "(614) 261-8359"
        },
        "geometry": {
          "coordinates": [
            -83.024631,
            40.056478
          ],
          "type": "Point"
        },
        "id": "07df04893e9f68205e747041fdff97bf"
      },
      {
        "type": "Feature",
        "properties": {
          "LOCATION_ID": "7200946",
          "LOCATION_NUMBER": "37903",
          "text": "South Ohio Avenue",
          "Address": "640  S  OHIO  AVE",
          "Phone": "(614) 555-5555"
        },
        "geometry": {
          "coordinates": [
            -82.97112,
            39.952156
          ],
          "type": "Point"
        },
        "id": "07f65e878760ebd5a29e2f01563564bc"
      },
      {
        "type": "Feature",
        "properties": {
          "LOCATION_ID": "100872",
          "LOCATION_NUMBER": "7776",
          "text": "Valleyview Dr",
          "Address": "2833 VALLEYVIEW DRIVE",
          "Phone": "(614) 539-0233"
        },
        "geometry": {
          "coordinates": [
            -83.07775,
            39.9621
          ],
          "type": "Point"
        },
        "id": "08296b5e5709e886c470ff43dcaee2a4"
      },
      {
        "type": "Feature",
        "properties": {
          "LOCATION_ID": "1530601",
          "LOCATION_NUMBER": "40675",
          "text": "Dixie Hwy",
          "Address": "5901 DIXIE HIGHWAY",
          "Phone": "(513) 874-0114"
        },
        "geometry": {
          "coordinates": [
            -84.51558,
            39.32914
          ],
          "type": "Point"
        },
        "id": "082b1e07ee7a576a6c3236094ce3a80d"
      },
      {
        "type": "Feature",
        "properties": {
          "LOCATION_ID": "3544281",
          "LOCATION_NUMBER": "90235",
          "text": "Morse Road",
          "Address": "700 MORSE ROAD",
          "Phone": "none"
        },
        "geometry": {
          "coordinates": [
            -83.000634,
            40.062178
          ],
          "type": "Point"
        },
        "id": "0856eef6453c6e589dd633fe03b1598a"
      },
      {
        "type": "Feature",
        "properties": {
          "LOCATION_ID": "4697812",
          "LOCATION_NUMBER": "50850",
          "text": "North Washington Street",
          "Address": "35 NORTH WASHINGTON STREET",
          "Phone": "(740) 362-7817"
        },
        "geometry": {
          "coordinates": [
            -83.071491,
            40.300053
          ],
          "type": "Point"
        },
        "id": "08781a92bc9bdefaab4c05244b3cef24"
      },
      {
        "type": "Feature",
        "properties": {
          "LOCATION_ID": "1643984",
          "LOCATION_NUMBER": "36990",
          "text": "E Broad St",
          "Address": "4207-A EAST BROAD STREET",
          "Phone": "(614) 231-8130"
        },
        "geometry": {
          "coordinates": [
            -82.88974,
            39.97404
          ],
          "type": "Point"
        },
        "id": "0881e239ef5c49a4f9d409d42de45914"
      },
      {
        "type": "Feature",
        "properties": {
          "LOCATION_ID": "25",
          "LOCATION_NUMBER": "25",
          "text": "West Fifth Avenue",
          "Address": "1350 WEST FIFTH AVE, SUITE 118",
          "Phone": "(614) 487-0270"
        },
        "geometry": {
          "coordinates": [
            -83.042869,
            39.989008
          ],
          "type": "Point"
        },
        "id": "0882749d21fa4402ebf141ade6a8d516"
      },
      {
        "type": "Feature",
        "properties": {
          "LOCATION_ID": "101312",
          "LOCATION_NUMBER": "20722",
          "text": "Olentangy River Road",
          "Address": "3773 OLENTANGY RIVER ROAD",
          "Phone": "(614) 566-5356"
        },
        "geometry": {
          "coordinates": [
            -83.034856,
            40.036797
          ],
          "type": "Point"
        },
        "id": "08832fb7b675e3cdde7ed26587d06a81"
      },
      {
        "type": "Feature",
        "properties": {
          "LOCATION_ID": "100741",
          "LOCATION_NUMBER": "15820",
          "text": "Inah Ave",
          "Address": "123 INAH AVENUE",
          "Phone": "(614) 878-4124"
        },
        "geometry": {
          "coordinates": [
            -83.13778,
            39.94925
          ],
          "type": "Point"
        },
        "id": "08b0a3a4166a26ce1476845a6943cfd6"
      },
      {
        "type": "Feature",
        "properties": {
          "LOCATION_ID": "4803",
          "LOCATION_NUMBER": "4803",
          "text": "W 5th Ave",
          "Address": "2200 WEST FIFTH AVENUE, FIRST FLOOR",
          "Phone": "(614) 466-7798"
        },
        "geometry": {
          "coordinates": [
            -83.06534,
            39.98973
          ],
          "type": "Point"
        },
        "id": "08b216d4b923a4ba88471305bf736066"
      },
      {
        "type": "Feature",
        "properties": {
          "LOCATION_ID": "47025",
          "LOCATION_NUMBER": "47025",
          "text": "N Hamilton Rd",
          "Address": "402 NORTH HAMILTON ROAD",
          "Phone": "(614) 863-0121"
        },
        "geometry": {
          "coordinates": [
            -82.87531,
            39.97121
          ],
          "type": "Point"
        },
        "id": "08dca2ff8f3f056635e0819e72451e96"
      },
      {
        "type": "Feature",
        "properties": {
          "LOCATION_ID": "3447373",
          "LOCATION_NUMBER": "26805",
          "text": "Alum Creek Drive",
          "Address": "1791 ALUM CREEK DRIVE",
          "Phone": "(614) 220-5670"
        },
        "geometry": {
          "coordinates": [
            -82.941677,
            39.929833
          ],
          "type": "Point"
        },
        "id": "08dfbc36b08287564404ba8620a7619e"
      },
      {
        "type": "Feature",
        "properties": {
          "LOCATION_ID": "1013314",
          "LOCATION_NUMBER": "20910",
          "text": "Windsor Avenue",
          "Address": "1132 WINDSOR AVENUE",
          "Phone": "(614) 294-2034"
        },
        "geometry": {
          "coordinates": [
            -82.976492,
            39.997353
          ],
          "type": "Point"
        },
        "id": "08f2168e9ae48be3c7f086ebe29bfbec"
      },
      {
        "type": "Feature",
        "properties": {
          "LOCATION_ID": "38600",
          "LOCATION_NUMBER": "38600",
          "text": "Dublin Road",
          "Address": "1261 DUBLIN ROAD",
          "Phone": "(614) 255-6397"
        },
        "geometry": {
          "coordinates": [
            -83.058936,
            39.975731
          ],
          "type": "Point"
        },
        "id": "0900085a951fae332bbdc28e324b1727"
      },
      {
        "type": "Feature",
        "properties": {
          "LOCATION_ID": "101391",
          "LOCATION_NUMBER": "28414",
          "text": "East Broad Street",
          "Address": "5965 EAST BROAD STREET",
          "Phone": "(614) 234-7460"
        },
        "geometry": {
          "coordinates": [
            -82.846278,
            39.978001
          ],
          "type": "Point"
        },
        "id": "09370c26dd1c44651179578a141672f0"
      },
      {
        "type": "Feature",
        "properties": {
          "LOCATION_ID": "20870",
          "LOCATION_NUMBER": "20870",
          "text": "Groveport Rd",
          "Address": "7370 GROVEPORT ROAD",
          "Phone": "(614) 836-4599"
        },
        "geometry": {
          "coordinates": [
            -82.89952,
            39.85925
          ],
          "type": "Point"
        },
        "id": "0940e747d2d5eebfb610167f11a2b530"
      },
      {
        "type": "Feature",
        "properties": {
          "LOCATION_ID": "2504205",
          "LOCATION_NUMBER": "4260",
          "text": "East Dublin Granville Road",
          "Address": "2999 EAST DUBLIN-GRANVILLE ROAD",
          "Phone": "(614) 890-9099"
        },
        "geometry": {
          "coordinates": [
            -82.93696,
            40.081238
          ],
          "type": "Point"
        },
        "id": "0942a82552b2a4f232b7b424d68bfb7a"
      },
      {
        "type": "Feature",
        "properties": {
          "LOCATION_ID": "1880844",
          "LOCATION_NUMBER": "33645",
          "text": "West Tenth Avenue",
          "Address": "452 WEST 10TH AVENUE",
          "Phone": "(614) 293-5123"
        },
        "geometry": {
          "coordinates": [
            -83.018267,
            39.994598
          ],
          "type": "Point"
        },
        "id": "0967bef6f61fe8180581afb5d47256bf"
      },
      {
        "type": "Feature",
        "properties": {
          "LOCATION_ID": "1596072",
          "LOCATION_NUMBER": "28226",
          "text": "Mcnaughten Ct",
          "Address": "235 MCNAUGHTEN ROAD",
          "Phone": "(614) 801-0411"
        },
        "geometry": {
          "coordinates": [
            -82.837673,
            39.974833
          ],
          "type": "Point"
        },
        "id": "0980811debf7add0d76e25c529c00e33"
      },
      {
        "type": "Feature",
        "properties": {
          "LOCATION_ID": "47740",
          "LOCATION_NUMBER": "47740",
          "text": "High St",
          "Address": "820 HIGH STREET",
          "Phone": "(614) 807-2626"
        },
        "geometry": {
          "coordinates": [
            -83.01787,
            40.0909
          ],
          "type": "Point"
        },
        "id": "09840076d0bd5ae09134c710a1416adb"
      },
      {
        "type": "Feature",
        "properties": {
          "LOCATION_ID": "1688980",
          "LOCATION_NUMBER": "41410",
          "text": "Clime Rd",
          "Address": "4330 CLIME ROAD NORTH",
          "Phone": "(614) 279-1126"
        },
        "geometry": {
          "coordinates": [
            -83.111628,
            39.935583
          ],
          "type": "Point"
        },
        "id": "09ceb75faf051d83c1218622482f0278"
      },
      {
        "type": "Feature",
        "properties": {
          "LOCATION_ID": "804331",
          "LOCATION_NUMBER": "34947",
          "text": "Madison Lane",
          "Address": "4567 MADISON LANE",
          "Phone": "(614) 462-3333"
        },
        "geometry": {
          "coordinates": [
            -82.883,
            39.877892
          ],
          "type": "Point"
        },
        "id": "09cf7a354e6f29d408487b3b98ffdf1b"
      },
      {
        "type": "Feature",
        "properties": {
          "LOCATION_ID": "6914083",
          "LOCATION_NUMBER": "40777",
          "text": "43223",
          "Address": "444 YELLOW CAB WAY",
          "Phone": "(614) 999-8888"
        },
        "geometry": {
          "coordinates": [
            -83.02,
            39.95
          ],
          "type": "Point"
        },
        "id": "09e7d29c64eca2253b744de1aea21c08"
      },
      {
        "type": "Feature",
        "properties": {
          "LOCATION_ID": "782252",
          "LOCATION_NUMBER": "14753",
          "text": "43215",
          "Address": "895 SOUTH PARSONS AVENUE",
          "Phone": "(614) 470-0397"
        },
        "geometry": {
          "coordinates": [
            -83,
            39.97
          ],
          "type": "Point"
        },
        "id": "0a124b1394c596847355c1c7609b1eed"
      },
      {
        "type": "Feature",
        "properties": {
          "LOCATION_ID": "30602",
          "LOCATION_NUMBER": "30602",
          "text": "Morse Rd",
          "Address": "1495 MORSE ROAD",
          "Phone": "(614) 267-7003"
        },
        "geometry": {
          "coordinates": [
            -82.97892,
            40.06018
          ],
          "type": "Point"
        },
        "id": "0a160fda7335fcf0b1ee6b92693121cc"
      },
      {
        "type": "Feature",
        "properties": {
          "LOCATION_ID": "2515033",
          "LOCATION_NUMBER": "20880",
          "text": "Main Street",
          "Address": "3701 MAIN STREET",
          "Phone": "(614) 876-2403"
        },
        "geometry": {
          "coordinates": [
            -83.161915,
            40.027447
          ],
          "type": "Point"
        },
        "id": "0a16584f6eb944573a36546d49161358"
      },
      {
        "type": "Feature",
        "properties": {
          "LOCATION_ID": "101285",
          "LOCATION_NUMBER": "7388",
          "text": "Marion Road",
          "Address": "1265 MARION ROAD",
          "Phone": "(614) 645-3111"
        },
        "geometry": {
          "coordinates": [
            -82.961821,
            39.922125
          ],
          "type": "Point"
        },
        "id": "0a64151ac1ddb6e31281ddd4404f42d9"
      },
      {
        "type": "Feature",
        "properties": {
          "LOCATION_ID": "3263304",
          "LOCATION_NUMBER": "4653",
          "text": "Morse Road",
          "Address": "2210 MORSE RD - GLOBAL MALL",
          "Phone": "(614) 476-8396"
        },
        "geometry": {
          "coordinates": [
            -82.959755,
            40.060898
          ],
          "type": "Point"
        },
        "id": "0a81a7be32aa03b48cdc99e22934d2ef"
      },
      {
        "type": "Feature",
        "properties": {
          "LOCATION_ID": "854050",
          "LOCATION_NUMBER": "44351",
          "text": "West Norwich Avenue",
          "Address": "31 WEST NORWICH AVENUE",
          "Phone": "(614) 294-6333"
        },
        "geometry": {
          "coordinates": [
            -83.010113,
            40.006864
          ],
          "type": "Point"
        },
        "id": "0ac3c5357d382d8b04608c06130ae901"
      },
      {
        "type": "Feature",
        "properties": {
          "LOCATION_ID": "9788",
          "LOCATION_NUMBER": "9788",
          "text": "North High Street",
          "Address": "3909 NORTH HIGH STREET",
          "Phone": "(614) 645-2275"
        },
        "geometry": {
          "coordinates": [
            -83.019595,
            40.041378
          ],
          "type": "Point"
        },
        "id": "0ace138a124d4c380711c166fb5299ee"
      },
      {
        "type": "Feature",
        "properties": {
          "LOCATION_ID": "3271282",
          "LOCATION_NUMBER": "34123",
          "text": "Columbus Sq",
          "Address": "5738 COLUMBUS SQUARE",
          "Phone": "(614) 714-2444"
        },
        "geometry": {
          "coordinates": [
            -82.949027,
            40.087531
          ],
          "type": "Point"
        },
        "id": "0b09f76c48fb9527a48d394f20310d4a"
      },
      {
        "type": "Feature",
        "properties": {
          "LOCATION_ID": "1518073",
          "LOCATION_NUMBER": "9215",
          "text": "State Route 7",
          "Address": "16001 STATE ROUTE 7",
          "Phone": "(740) 283-8542"
        },
        "geometry": {
          "coordinates": [
            -80.6104,
            40.36268
          ],
          "type": "Point"
        },
        "id": "0b3344365ad87a252f971802e55b53bc"
      },
      {
        "type": "Feature",
        "properties": {
          "LOCATION_ID": "804310",
          "LOCATION_NUMBER": "34931",
          "text": "Park Street",
          "Address": "3360 PARK STREET",
          "Phone": "(614) 277-1710"
        },
        "geometry": {
          "coordinates": [
            -83.092339,
            39.881778
          ],
          "type": "Point"
        },
        "id": "0b406dc01048622b71908efff138c605"
      },
      {
        "type": "Feature",
        "properties": {
          "LOCATION_ID": "5250486",
          "LOCATION_NUMBER": "50995",
          "text": "South Sixth Street",
          "Address": "80 SOUTH 6TH STREET",
          "Phone": "(614) 228-3333"
        },
        "geometry": {
          "coordinates": [
            -82.991952,
            39.961248
          ],
          "type": "Point"
        },
        "id": "0b42f1859c5878e0b7ab6f9dce6a7183"
      },
      {
        "type": "Feature",
        "properties": {
          "LOCATION_ID": "9778",
          "LOCATION_NUMBER": "9778",
          "text": "Parsons Avenue",
          "Address": "845 PARSONS AVENUE",
          "Phone": "(614) 645-2275"
        },
        "geometry": {
          "coordinates": [
            -82.982973,
            39.946459
          ],
          "type": "Point"
        },
        "id": "0b57dc931440df24a949d7ded988f19e"
      },
      {
        "type": "Feature",
        "properties": {
          "LOCATION_ID": "100844",
          "LOCATION_NUMBER": "39660",
          "text": "South High Street",
          "Address": "1675 SOUTH HIGH STREET",
          "Phone": "(614) 221-4269"
        },
        "geometry": {
          "coordinates": [
            -82.996421,
            39.927716
          ],
          "type": "Point"
        },
        "id": "0b66490e6b56d7ae93fa87adc084eda7"
      },
      {
        "type": "Feature",
        "properties": {
          "LOCATION_ID": "2260936",
          "LOCATION_NUMBER": "33629",
          "text": "Easton Loop East",
          "Address": "4141 EASTON LOOP EAST",
          "Phone": "(614) 293-0020"
        },
        "geometry": {
          "coordinates": [
            -82.912512,
            40.053019
          ],
          "type": "Point"
        },
        "id": "0b7898577342079580c554d83205c089"
      },
      {
        "type": "Feature",
        "properties": {
          "LOCATION_ID": "3478911",
          "LOCATION_NUMBER": "90023",
          "text": "East Broad Street",
          "Address": "4236 EAST BROAD STREET",
          "Phone": "(614) 237-0003"
        },
        "geometry": {
          "coordinates": [
            -82.888384,
            39.974995
          ],
          "type": "Point"
        },
        "id": "0b8ba7c5907f4b64647cfd7c387ba316"
      },
      {
        "type": "Feature",
        "properties": {
          "LOCATION_ID": "3550716",
          "LOCATION_NUMBER": "31368",
          "text": "Fair Avenue",
          "Address": "1327 FAIR AVENUE, ROOM 10",
          "Phone": "(614) 258-7038"
        },
        "geometry": {
          "coordinates": [
            -82.964749,
            39.963442
          ],
          "type": "Point"
        },
        "id": "0ba951bb563a20a9272395c2c1c9ea5e"
      },
      {
        "type": "Feature",
        "properties": {
          "LOCATION_ID": "1497247",
          "LOCATION_NUMBER": "20737",
          "text": "South High Street",
          "Address": "41 SOUTH HIGH STREET",
          "Phone": "(614) 224-8555"
        },
        "geometry": {
          "coordinates": [
            -83.000736,
            39.961133
          ],
          "type": "Point"
        },
        "id": "0bb6788e4866a9354927cc684980c951"
      },
      {
        "type": "Feature",
        "properties": {
          "LOCATION_ID": "101330",
          "LOCATION_NUMBER": "33614",
          "text": "Kenny Rd",
          "Address": "2000 KENNY ROAD",
          "Phone": "(614) 293-9777"
        },
        "geometry": {
          "coordinates": [
            -83.03441,
            40.00126
          ],
          "type": "Point"
        },
        "id": "0bee01742a727fd83d8a4bce1ace9655"
      },
      {
        "type": "Feature",
        "properties": {
          "LOCATION_ID": "1425544",
          "LOCATION_NUMBER": "105",
          "text": "East Broad Street",
          "Address": "1339 EAST BROAD STREET",
          "Phone": "(614) 252-5271"
        },
        "geometry": {
          "coordinates": [
            -82.965047,
            39.966148
          ],
          "type": "Point"
        },
        "id": "0bf7489e1c8fe005de51a9066b265e41"
      },
      {
        "type": "Feature",
        "properties": {
          "LOCATION_ID": "26630",
          "LOCATION_NUMBER": "26630",
          "text": "East Dublin Granville Road",
          "Address": "445 EAST-DUBLIN GRANVILLE ROAD",
          "Phone": "none"
        },
        "geometry": {
          "coordinates": [
            -83.005954,
            40.085679
          ],
          "type": "Point"
        },
        "id": "0bfca498a890161e28ac6902d812ec82"
      },
      {
        "type": "Feature",
        "properties": {
          "LOCATION_ID": "100739",
          "LOCATION_NUMBER": "15818",
          "text": "Minerva Lake Road",
          "Address": "2728 MINERVA LAKE ROAD",
          "Phone": "(614) 882-3375"
        },
        "geometry": {
          "coordinates": [
            -82.939573,
            40.076864
          ],
          "type": "Point"
        },
        "id": "0bfe08b1557598e8e723a5e1e1b0e262"
      },
      {
        "type": "Feature",
        "properties": {
          "LOCATION_ID": "101450",
          "LOCATION_NUMBER": "9987",
          "text": "Wilson Rd",
          "Address": "1900 WILSON ROAD",
          "Phone": "(614) 645-3221"
        },
        "geometry": {
          "coordinates": [
            -83.10772,
            39.98811
          ],
          "type": "Point"
        },
        "id": "0c42690bf410ace1489d50cdb49f174c"
      },
      {
        "type": "Feature",
        "properties": {
          "LOCATION_ID": "100971",
          "LOCATION_NUMBER": "21754",
          "text": "Astor Avenue",
          "Address": "2115 ASTOR AVENUE",
          "Phone": "(614) 338-2380"
        },
        "geometry": {
          "coordinates": [
            -82.941816,
            39.952268
          ],
          "type": "Point"
        },
        "id": "0c458056b6de8d07b71e5964d78b711b"
      },
      {
        "type": "Feature",
        "properties": {
          "LOCATION_ID": "4557839",
          "LOCATION_NUMBER": "26253",
          "text": "N Wilson Rd",
          "Address": "82 N WILSON RD",
          "Phone": "(614) 279-4635"
        },
        "geometry": {
          "coordinates": [
            -83.09418,
            39.95535
          ],
          "type": "Point"
        },
        "id": "0c5ad0bf75852f0e892dbf2b066b81f1"
      },
      {
        "type": "Feature",
        "properties": {
          "LOCATION_ID": "101215",
          "LOCATION_NUMBER": "33877",
          "text": "43210",
          "Address": "1000 LINCOLN TOWER",
          "Phone": "(614) 292-8889"
        },
        "geometry": {
          "coordinates": [
            -83.01,
            40
          ],
          "type": "Point"
        },
        "id": "0c5e54751f6e86628036ef6f607430ae"
      },
      {
        "type": "Feature",
        "properties": {
          "LOCATION_ID": "100781",
          "LOCATION_NUMBER": "5606",
          "text": "Parsons Avenue",
          "Address": "1833 PARSONS AVENUE",
          "Phone": "(614) 884-4400"
        },
        "geometry": {
          "coordinates": [
            -82.984756,
            39.925379
          ],
          "type": "Point"
        },
        "id": "0c997ea450b593c2619eef69b391584a"
      },
      {
        "type": "Feature",
        "properties": {
          "LOCATION_ID": "16901",
          "LOCATION_NUMBER": "16901",
          "text": "East Mound Street",
          "Address": "525 EAST MOUND STREET",
          "Phone": "(614) 421-5500"
        },
        "geometry": {
          "coordinates": [
            -82.984607,
            39.956291
          ],
          "type": "Point"
        },
        "id": "0c9f31046c386fc78a805ed77db737cb"
      },
      {
        "type": "Feature",
        "properties": {
          "LOCATION_ID": "3652217",
          "LOCATION_NUMBER": "13930",
          "text": "Brook Hollow",
          "Address": "676 BROOK HOLLOW",
          "Phone": "(614) 340-5592"
        },
        "geometry": {
          "coordinates": [
            -82.859349,
            40.004341
          ],
          "type": "Point"
        },
        "id": "0cb7974fb304f692ad853deba6b69f11"
      },
      {
        "type": "Feature",
        "properties": {
          "LOCATION_ID": "5457109",
          "LOCATION_NUMBER": "5201",
          "text": "Sunbury Road",
          "Address": "975 SOUTH SUNBURY ROAD",
          "Phone": "(614) 882-2347"
        },
        "geometry": {
          "coordinates": [
            -82.889723,
            40.09989
          ],
          "type": "Point"
        },
        "id": "0cebeaacc7aa0118df2f6b44de0ad577"
      },
      {
        "type": "Feature",
        "properties": {
          "LOCATION_ID": "1200",
          "LOCATION_NUMBER": "1200",
          "text": "Us Hwy 322",
          "Address": "4506 CHESTER AVENUE",
          "Phone": "(216) 472-2200"
        },
        "geometry": {
          "coordinates": [
            -81.655812,
            41.505409
          ],
          "type": "Point"
        },
        "id": "0cef01a7847d953c5bb20497bc479354"
      },
      {
        "type": "Feature",
        "properties": {
          "LOCATION_ID": "1120204",
          "LOCATION_NUMBER": "26236",
          "text": "Westland Mall",
          "Address": "4273 WESTLAND MALL",
          "Phone": "(614) 443-5130"
        },
        "geometry": {
          "coordinates": [
            -83.11485,
            39.95263
          ],
          "type": "Point"
        },
        "id": "0cf38f4800f13734953fe62ed433f57e"
      },
      {
        "type": "Feature",
        "properties": {
          "LOCATION_ID": "16906",
          "LOCATION_NUMBER": "16906",
          "text": "W Mound St",
          "Address": "855 WEST MOUND STREET",
          "Phone": "(614) 341-6060"
        },
        "geometry": {
          "coordinates": [
            -83.021563,
            39.948977
          ],
          "type": "Point"
        },
        "id": "0cf869802aef012a022500f166acf934"
      },
      {
        "type": "Feature",
        "properties": {
          "LOCATION_ID": "100694",
          "LOCATION_NUMBER": "45707",
          "text": "North High Street",
          "Address": "1195 NORTH HIGH STREET",
          "Phone": "(614) 291-0424"
        },
        "geometry": {
          "coordinates": [
            -83.005611,
            39.986711
          ],
          "type": "Point"
        },
        "id": "0d53cdf0a8ed3913d020ff79ea0c83a4"
      },
      {
        "type": "Feature",
        "properties": {
          "LOCATION_ID": "101459",
          "LOCATION_NUMBER": "6602",
          "text": "Cleveland Avenue",
          "Address": "1390 CLEVELAND AVENUE",
          "Phone": "(614) 722-6200"
        },
        "geometry": {
          "coordinates": [
            -82.981405,
            39.993556
          ],
          "type": "Point"
        },
        "id": "0d83262a5c0f5e901e17ac54dd61fa76"
      },
      {
        "type": "Feature",
        "properties": {
          "LOCATION_ID": "44001",
          "LOCATION_NUMBER": "44001",
          "text": "Taylor Road",
          "Address": "775 TAYLOR ROAD",
          "Phone": "(614) 577-9953"
        },
        "geometry": {
          "coordinates": [
            -82.854433,
            40.002255
          ],
          "type": "Point"
        },
        "id": "0d87e0aa6b56e7fba62e39c5df0209cf"
      },
      {
        "type": "Feature",
        "properties": {
          "LOCATION_ID": "101425",
          "LOCATION_NUMBER": "9966",
          "text": "Deckebach Rd",
          "Address": "1300 DECKENBACH",
          "Phone": "(614) 645-3337"
        },
        "geometry": {
          "coordinates": [
            -83.005876,
            39.933502
          ],
          "type": "Point"
        },
        "id": "0d97ef7136657f7a4aabeddc937e063a"
      },
      {
        "type": "Feature",
        "properties": {
          "LOCATION_ID": "4180604",
          "LOCATION_NUMBER": "20319",
          "text": "Riverside Drive",
          "Address": "3588 RIVERSIDE DRIVE",
          "Phone": "(614) 583-0400"
        },
        "geometry": {
          "coordinates": [
            -83.090818,
            40.026464
          ],
          "type": "Point"
        },
        "id": "0da2ffdf59bf6b9ec9afdd0a8162fd4c"
      },
      {
        "type": "Feature",
        "properties": {
          "LOCATION_ID": "49025",
          "LOCATION_NUMBER": "49025",
          "text": "South Third Street",
          "Address": "132 SOUTH THIRD STREET",
          "Phone": "(614) 224-9119"
        },
        "geometry": {
          "coordinates": [
            -82.997227,
            39.959694
          ],
          "type": "Point"
        },
        "id": "0da7f5015fac473e1b390af12716c5a2"
      },
      {
        "type": "Feature",
        "properties": {
          "LOCATION_ID": "101368",
          "LOCATION_NUMBER": "28404",
          "text": "West Rich Street",
          "Address": "730 WEST RICH STREET",
          "Phone": "(614) 234-8170"
        },
        "geometry": {
          "coordinates": [
            -83.019172,
            39.955574
          ],
          "type": "Point"
        },
        "id": "0dab22f09b986b9d5bcba518d11a670a"
      },
      {
        "type": "Feature",
        "properties": {
          "LOCATION_ID": "2514957",
          "LOCATION_NUMBER": "12930",
          "text": "Tremont Road",
          "Address": "3311 TREMONT ROAD",
          "Phone": "(614) 459-3388"
        },
        "geometry": {
          "coordinates": [
            -83.058453,
            40.024924
          ],
          "type": "Point"
        },
        "id": "0dab45cd70ea93e9531f18ef4897fb59"
      },
      {
        "type": "Feature",
        "properties": {
          "LOCATION_ID": "1470971",
          "LOCATION_NUMBER": "6618",
          "text": "South High Street",
          "Address": "1392 SOUTH HIGH STREET",
          "Phone": "(614) 722-6200"
        },
        "geometry": {
          "coordinates": [
            -82.995533,
            39.933759
          ],
          "type": "Point"
        },
        "id": "0dd5f6b28e2abfcc7eda2c95358d5df3"
      },
      {
        "type": "Feature",
        "properties": {
          "LOCATION_ID": "45350",
          "LOCATION_NUMBER": "45350",
          "text": "Cooper Road",
          "Address": "6000 COOPER ROAD",
          "Phone": "(614) 890-0000"
        },
        "geometry": {
          "coordinates": [
            -82.935472,
            40.091953
          ],
          "type": "Point"
        },
        "id": "0de3355a33d80f997d0ec5889399559e"
      },
      {
        "type": "Feature",
        "properties": {
          "LOCATION_ID": "1013368",
          "LOCATION_NUMBER": "43934",
          "text": "Covenant Way",
          "Address": "85 CONVENANT WAY",
          "Phone": "(614) 837-2008"
        },
        "geometry": {
          "coordinates": [
            -82.813767,
            39.8453
          ],
          "type": "Point"
        },
        "id": "0de81be223ed448df84bb80fbb7737d4"
      },
      {
        "type": "Feature",
        "properties": {
          "LOCATION_ID": "3016310",
          "LOCATION_NUMBER": "4460",
          "text": "East Main Street",
          "Address": "1670 EAST MAIN STREET",
          "Phone": "(614) 251-2225"
        },
        "geometry": {
          "coordinates": [
            -82.95455,
            39.957869
          ],
          "type": "Point"
        },
        "id": "0e2e04f9805ac4d6d117b0428300a5e1"
      },
      {
        "type": "Feature",
        "properties": {
          "LOCATION_ID": "850",
          "LOCATION_NUMBER": "850",
          "text": "State Route 56 SW",
          "Address": "2760 STATE ROUTE 56 SOUTHWEST",
          "Phone": "(740) 852-1348"
        },
        "geometry": {
          "coordinates": [
            -83.47195,
            39.90739
          ],
          "type": "Point"
        },
        "id": "0e3afbcedbd5239e9886ca6420ee3997"
      },
      {
        "type": "Feature",
        "properties": {
          "LOCATION_ID": "100664",
          "LOCATION_NUMBER": "15505",
          "text": "North Grant Avenue",
          "Address": "245 NORTH GRANT AVENUE",
          "Phone": "(614) 224-6617"
        },
        "geometry": {
          "coordinates": [
            -82.992288,
            39.968414
          ],
          "type": "Point"
        },
        "id": "0e5a92ae2b2110ae8e0a17c4ec26e873"
      },
      {
        "type": "Feature",
        "properties": {
          "LOCATION_ID": "3557341",
          "LOCATION_NUMBER": "31086",
          "text": "North High Street",
          "Address": "51 NORTH HIGH STREET, SUITE 150",
          "Phone": "(800) 648-1176"
        },
        "geometry": {
          "coordinates": [
            -83.001078,
            39.963406
          ],
          "type": "Point"
        },
        "id": "0e5cf2021991ee8487b9ac347ddfa8ce"
      },
      {
        "type": "Feature",
        "properties": {
          "LOCATION_ID": "40900",
          "LOCATION_NUMBER": "40900",
          "text": "Lehner Rd",
          "Address": "2161 LEHNER ROAD",
          "Phone": "none"
        },
        "geometry": {
          "coordinates": [
            -82.95861,
            40.05213
          ],
          "type": "Point"
        },
        "id": "0e5f1a00e96121cd3d312d1b7bac3bfd"
      },
      {
        "type": "Feature",
        "properties": {
          "LOCATION_ID": "101252",
          "LOCATION_NUMBER": "5777",
          "text": "East Main Street",
          "Address": "2314 EAST MAIN STREET",
          "Phone": "(614) 890-1901"
        },
        "geometry": {
          "coordinates": [
            -82.936622,
            39.957493
          ],
          "type": "Point"
        },
        "id": "0e89390c0d6f24c1b476c82a00e9b922"
      },
      {
        "type": "Feature",
        "properties": {
          "LOCATION_ID": "50050",
          "LOCATION_NUMBER": "50050",
          "text": "Mount Vernon Avenue",
          "Address": "1147 MOUNT VERNON AVENUE",
          "Phone": "(614) 253-0334"
        },
        "geometry": {
          "coordinates": [
            -82.971514,
            39.97237
          ],
          "type": "Point"
        },
        "id": "0e8ae6b85dbd3f2eea6c2e4edebdc5e9"
      },
      {
        "type": "Feature",
        "properties": {
          "LOCATION_ID": "101182",
          "LOCATION_NUMBER": "8710",
          "text": "Heinzerling Drive",
          "Address": "1755 HEINZERLING DRIVE",
          "Phone": "(614) 263-5006"
        },
        "geometry": {
          "coordinates": [
            -83.069639,
            39.920223
          ],
          "type": "Point"
        },
        "id": "0e907d0942ad69c7f76acdb43b36b194"
      },
      {
        "type": "Feature",
        "properties": {
          "LOCATION_ID": "4977727",
          "LOCATION_NUMBER": "50905",
          "text": "N High St",
          "Address": "2231 NORTH HIGH STREET",
          "Phone": "(614) 516-3075"
        },
        "geometry": {
          "coordinates": [
            -83.00965,
            40.00772
          ],
          "type": "Point"
        },
        "id": "0ec3e58d680d70ba0a5acad6edecab08"
      },
      {
        "type": "Feature",
        "properties": {
          "LOCATION_ID": "819547",
          "LOCATION_NUMBER": "4550",
          "text": "Deer Trail Court",
          "Address": "233 DEER TRAIL COURT",
          "Phone": "(614) 866-3005"
        },
        "geometry": {
          "coordinates": [
            -82.794845,
            39.982443
          ],
          "type": "Point"
        },
        "id": "0ed67facfb3854adbf8e764bfa8fe29a"
      },
      {
        "type": "Feature",
        "properties": {
          "LOCATION_ID": "16500",
          "LOCATION_NUMBER": "16500",
          "text": "Karl Road",
          "Address": "5100 KARL ROAD",
          "Phone": "(614) 885-2833"
        },
        "geometry": {
          "coordinates": [
            -82.975722,
            40.071057
          ],
          "type": "Point"
        },
        "id": "0f18c232b057ee0bd810d199f69b4c1f"
      },
      {
        "type": "Feature",
        "properties": {
          "LOCATION_ID": "27200",
          "LOCATION_NUMBER": "27200",
          "text": "South High Street",
          "Address": "1430 SOUTH HIGH STREET",
          "Phone": "(614) 437-5000"
        },
        "geometry": {
          "coordinates": [
            -82.995203,
            39.932879
          ],
          "type": "Point"
        },
        "id": "0f21c39174b00f81294e4641b7645313"
      },
      {
        "type": "Feature",
        "properties": {
          "LOCATION_ID": "101397",
          "LOCATION_NUMBER": "9932",
          "text": "E Woodrow Ave",
          "Address": "580 WOODROW AVENUE",
          "Phone": "(614) 645-3610"
        },
        "geometry": {
          "coordinates": [
            -82.980117,
            39.928171
          ],
          "type": "Point"
        },
        "id": "0f700ed55a0c2f3696ad3b8ac2b443f8"
      },
      {
        "type": "Feature",
        "properties": {
          "LOCATION_ID": "25400",
          "LOCATION_NUMBER": "25400",
          "text": "City Park Ave",
          "Address": "1108 CITY PARK AVENUE",
          "Phone": "(614) 224-8374"
        },
        "geometry": {
          "coordinates": [
            -82.99443,
            39.93969
          ],
          "type": "Point"
        },
        "id": "0f79807edbc0faa5f89bf4b50fb58dee"
      },
      {
        "type": "Feature",
        "properties": {
          "LOCATION_ID": "3852613",
          "LOCATION_NUMBER": "47742",
          "text": "Worthington Center Drive",
          "Address": "1389 WORTHINGTON CENTRE DRIVE",
          "Phone": "(614) 807-2626"
        },
        "geometry": {
          "coordinates": [
            -82.980052,
            40.123069
          ],
          "type": "Point"
        },
        "id": "0f878689cd7703adc0b7dbe3306fa3e0"
      },
      {
        "type": "Feature",
        "properties": {
          "LOCATION_ID": "31110",
          "LOCATION_NUMBER": "31110",
          "text": "North Nelson Road",
          "Address": "500 NORTH NELSON ROAD",
          "Phone": "none"
        },
        "geometry": {
          "coordinates": [
            -82.944786,
            39.978432
          ],
          "type": "Point"
        },
        "id": "0fa19a4eebff7f155e1c6399f822aa4d"
      },
      {
        "type": "Feature",
        "properties": {
          "LOCATION_ID": "3544239",
          "LOCATION_NUMBER": "90135",
          "text": "East Dublin Granville Road",
          "Address": "1395 EAST DUBLIN GRANVILLE ROAD",
          "Phone": "none"
        },
        "geometry": {
          "coordinates": [
            -82.980426,
            40.086743
          ],
          "type": "Point"
        },
        "id": "0fa8e42650207bb895e42473b44a26c3"
      },
      {
        "type": "Feature",
        "properties": {
          "LOCATION_ID": "100776",
          "LOCATION_NUMBER": "5601",
          "text": "Mount Vernon Avenue",
          "Address": "1530 MOUNT VERNON AVENUE",
          "Phone": "(614) 252-6452"
        },
        "geometry": {
          "coordinates": [
            -82.961576,
            39.974373
          ],
          "type": "Point"
        },
        "id": "0fadac97878d551a84ee9e4a4f206036"
      },
      {
        "type": "Feature",
        "properties": {
          "LOCATION_ID": "59540",
          "LOCATION_NUMBER": "59540",
          "text": "W Lakeview Ave",
          "Address": "14 WEST LAKEVIEW AVENUE",
          "Phone": "none"
        },
        "geometry": {
          "coordinates": [
            -83.01646,
            40.02783
          ],
          "type": "Point"
        },
        "id": "0faee2a29a957ad44551c98a29f90c6d"
      },
      {
        "type": "Feature",
        "properties": {
          "LOCATION_ID": "9711",
          "LOCATION_NUMBER": "9711",
          "text": "Marion Road",
          "Address": "1316 MARION ROAD",
          "Phone": "(614) 421-6345"
        },
        "geometry": {
          "coordinates": [
            -82.960471,
            39.922763
          ],
          "type": "Point"
        },
        "id": "0fc8c5bf9acde73d44acae472e3582d3"
      },
      {
        "type": "Feature",
        "properties": {
          "LOCATION_ID": "5216088",
          "LOCATION_NUMBER": "20323",
          "text": "East Broad Street",
          "Address": "6487 EAST BROAD STREET",
          "Phone": "none"
        },
        "geometry": {
          "coordinates": [
            -82.822626,
            39.983207
          ],
          "type": "Point"
        },
        "id": "1005aae361115a9d540bb84f1491f808"
      },
      {
        "type": "Feature",
        "properties": {
          "LOCATION_ID": "100800",
          "LOCATION_NUMBER": "30127",
          "text": "Cleveland Avenue",
          "Address": "  4093 CLEVELAND AVENUE",
          "Phone": "(614) 539-5060"
        },
        "geometry": {
          "coordinates": [
            -82.954277,
            40.052337
          ],
          "type": "Point"
        },
        "id": "101eec4032072d192ef9894fb692fd1e"
      },
      {
        "type": "Feature",
        "properties": {
          "LOCATION_ID": "1492236",
          "LOCATION_NUMBER": "15766",
          "text": "Harry Sauner Road",
          "Address": "514 HARRY SAUNER ROAD",
          "Phone": "(937) 393-1921"
        },
        "geometry": {
          "coordinates": [
            -83.617987,
            39.227105
          ],
          "type": "Point"
        },
        "id": "1033b7ba9ff5039e32825a4d1f2511dd"
      },
      {
        "type": "Feature",
        "properties": {
          "LOCATION_ID": "18661",
          "LOCATION_NUMBER": "18661",
          "text": "Rocky Fork Boulevard",
          "Address": "480 ROCKY FORK BOULEVARD",
          "Phone": "(614) 342-4265"
        },
        "geometry": {
          "coordinates": [
            -82.864856,
            40.013707
          ],
          "type": "Point"
        },
        "id": "103b844b4aa04b00e756cd8df6509074"
      },
      {
        "type": "Feature",
        "properties": {
          "LOCATION_ID": "5729041",
          "LOCATION_NUMBER": "26262",
          "text": "N Wilson Rd",
          "Address": "82 NORTH WILSON ROAD",
          "Phone": "none"
        },
        "geometry": {
          "coordinates": [
            -83.09418,
            39.95535
          ],
          "type": "Point"
        },
        "id": "106928ab9c6a1649fec969fc73fc3743"
      },
      {
        "type": "Feature",
        "properties": {
          "LOCATION_ID": "4840364",
          "LOCATION_NUMBER": "26254",
          "text": "Main Street",
          "Address": "337  MAIN ST",
          "Phone": "(740) 503-6787"
        },
        "geometry": {
          "coordinates": [
            -82.130922,
            39.043338
          ],
          "type": "Point"
        },
        "id": "108b6104a591a1d9e736b3016024ca5b"
      },
      {
        "type": "Feature",
        "properties": {
          "LOCATION_ID": "1869752",
          "LOCATION_NUMBER": "8928",
          "text": "Sunbury Road",
          "Address": "7600 SUNBURY ROAD",
          "Phone": "none"
        },
        "geometry": {
          "coordinates": [
            -82.885925,
            40.112629
          ],
          "type": "Point"
        },
        "id": "10a96a4355e8f571f0df4fdf406cb788"
      },
      {
        "type": "Feature",
        "properties": {
          "LOCATION_ID": "1832576",
          "LOCATION_NUMBER": "13505",
          "text": "West Loop S",
          "Address": "1177 WEST LOOP SOUTH",
          "Phone": "(713) 599-0065"
        },
        "geometry": {
          "coordinates": [
            -95.45192,
            29.75374
          ],
          "type": "Point"
        },
        "id": "10aa0a5c654bf065ce24bbced87bcc2e"
      },
      {
        "type": "Feature",
        "properties": {
          "LOCATION_ID": "6725",
          "LOCATION_NUMBER": "6725",
          "text": "Mccauley Court",
          "Address": "2407 MCCAULEY COURT",
          "Phone": "(614) 799-0983"
        },
        "geometry": {
          "coordinates": [
            -83.082086,
            40.064188
          ],
          "type": "Point"
        },
        "id": "10e98f7fca08543c66523c44b47f10e4"
      },
      {
        "type": "Feature",
        "properties": {
          "LOCATION_ID": "32900",
          "LOCATION_NUMBER": "32900",
          "text": "North High Street",
          "Address": "5220 NORTH HIGH STREET",
          "Phone": "(614) 752-1152"
        },
        "geometry": {
          "coordinates": [
            -83.018782,
            40.069117
          ],
          "type": "Point"
        },
        "id": "10e9c2b88acaf137c0a571c8661dddf8"
      },
      {
        "type": "Feature",
        "properties": {
          "LOCATION_ID": "101307",
          "LOCATION_NUMBER": "20717",
          "text": "Olentangy River Rd",
          "Address": "3724-A OLENTANGY RIVER ROAD",
          "Phone": "(614) 566-5858"
        },
        "geometry": {
          "coordinates": [
            -83.032,
            40.03517
          ],
          "type": "Point"
        },
        "id": "10f64e7cdd66237577b19cc0e5e26aba"
      },
      {
        "type": "Feature",
        "properties": {
          "LOCATION_ID": "12800",
          "LOCATION_NUMBER": "12800",
          "text": "W Waterloo St",
          "Address": "360 W WATERLOO ST.",
          "Phone": "(614) 834-4700"
        },
        "geometry": {
          "coordinates": [
            -82.814792,
            39.850019
          ],
          "type": "Point"
        },
        "id": "112756273774a9e8ffd444a4a9e04861"
      },
      {
        "type": "Feature",
        "properties": {
          "LOCATION_ID": "2526552",
          "LOCATION_NUMBER": "34045",
          "text": "Kinnear Road",
          "Address": "770 KINNEAR RD.",
          "Phone": "(614) 291-5667"
        },
        "geometry": {
          "coordinates": [
            -83.029245,
            39.99864
          ],
          "type": "Point"
        },
        "id": "112e6ae2ae258bf01af3c01318d26ce6"
      },
      {
        "type": "Feature",
        "properties": {
          "LOCATION_ID": "19600",
          "LOCATION_NUMBER": "19600",
          "text": "Watermark Drive",
          "Address": "1700 WATERMARK DRIVE",
          "Phone": "(614) 487-8101"
        },
        "geometry": {
          "coordinates": [
            -83.049029,
            39.972344
          ],
          "type": "Point"
        },
        "id": "113e9b6bf3c7905c821b58048690df6f"
      },
      {
        "type": "Feature",
        "properties": {
          "LOCATION_ID": "1590692",
          "LOCATION_NUMBER": "43291",
          "text": "Dublin Rd",
          "Address": "4343 DUBLIN ROAD",
          "Phone": "(740) 374-3103"
        },
        "geometry": {
          "coordinates": [
            -83.10481,
            40.04766
          ],
          "type": "Point"
        },
        "id": "11467a11431541dd7cc673918ecc8576"
      },
      {
        "type": "Feature",
        "properties": {
          "LOCATION_ID": "929981",
          "LOCATION_NUMBER": "25125",
          "text": "Westland Mall",
          "Address": "4247 WESTLAND MALL",
          "Phone": "(614) 274-1116"
        },
        "geometry": {
          "coordinates": [
            -83.11485,
            39.95263
          ],
          "type": "Point"
        },
        "id": "1176bc69f254a9e2f908e56298807ffc"
      },
      {
        "type": "Feature",
        "properties": {
          "LOCATION_ID": "7325",
          "LOCATION_NUMBER": "7325",
          "text": "E Broad St",
          "Address": "760 EAST BROAD STREET",
          "Phone": "(614) 491-0580"
        },
        "geometry": {
          "coordinates": [
            -82.97989,
            39.96564
          ],
          "type": "Point"
        },
        "id": "11b0065e39e1e5b8861d39071f364926"
      },
      {
        "type": "Feature",
        "properties": {
          "LOCATION_ID": "4274427",
          "LOCATION_NUMBER": "28424",
          "text": "Meadow Pond Court",
          "Address": "3000 MEADOW POND COURT",
          "Phone": "(614) 871-7130"
        },
        "geometry": {
          "coordinates": [
            -83.085411,
            39.841824
          ],
          "type": "Point"
        },
        "id": "11b933ff4c18e71865ccc5a147fa5b0b"
      },
      {
        "type": "Feature",
        "properties": {
          "LOCATION_ID": "9710",
          "LOCATION_NUMBER": "9710",
          "text": "South Front Street",
          "Address": "150 SOUTH FRONT STREET",
          "Phone": "(614) 221-1321"
        },
        "geometry": {
          "coordinates": [
            -83.00162,
            39.958777
          ],
          "type": "Point"
        },
        "id": "11e29a13052f1d68b4ac0a22af66fb70"
      },
      {
        "type": "Feature",
        "properties": {
          "LOCATION_ID": "19805",
          "LOCATION_NUMBER": "19805",
          "text": "East Broad Street",
          "Address": "1746 EAST BROAD STREET",
          "Phone": "(614) 253-1605"
        },
        "geometry": {
          "coordinates": [
            -82.954601,
            39.967858
          ],
          "type": "Point"
        },
        "id": "12267c6ce6144fe126497a477354fffd"
      },
      {
        "type": "Feature",
        "properties": {
          "LOCATION_ID": "34400",
          "LOCATION_NUMBER": "34400",
          "text": "West Lane Avenue",
          "Address": "1460 WEST LANE AVENUE",
          "Phone": "none"
        },
        "geometry": {
          "coordinates": [
            -83.049174,
            40.006948
          ],
          "type": "Point"
        },
        "id": "123ac06a2f43174dc4c514755654fe69"
      },
      {
        "type": "Feature",
        "properties": {
          "LOCATION_ID": "24500",
          "LOCATION_NUMBER": "24500",
          "text": "Karl Road",
          "Address": "5750 KARL ROAD",
          "Phone": "(614) 885-3929"
        },
        "geometry": {
          "coordinates": [
            -82.974967,
            40.083828
          ],
          "type": "Point"
        },
        "id": "1241d76d99d764b7c022d3ed3aa7d54d"
      },
      {
        "type": "Feature",
        "properties": {
          "LOCATION_ID": "21550",
          "LOCATION_NUMBER": "21550",
          "text": "Saint Clair Avenue",
          "Address": "870 SAINT CLAIR AVENUE",
          "Phone": "(614) 792-3596"
        },
        "geometry": {
          "coordinates": [
            -82.979809,
            39.983114
          ],
          "type": "Point"
        },
        "id": "1243e7a4e4cff6cdcd4df4ae39719f75"
      },
      {
        "type": "Feature",
        "properties": {
          "LOCATION_ID": "18460",
          "LOCATION_NUMBER": "18460",
          "text": "Riverside Drive",
          "Address": "6000 RIVERSIDE DRIVE",
          "Phone": "(614) 764-1600"
        },
        "geometry": {
          "coordinates": [
            -83.107118,
            40.089728
          ],
          "type": "Point"
        },
        "id": "127f04a64b2f2215a3a02fa34630f095"
      },
      {
        "type": "Feature",
        "properties": {
          "LOCATION_ID": "4271060",
          "LOCATION_NUMBER": "50770",
          "text": "Morse Road",
          "Address": "700 MORSE ROAD",
          "Phone": "(614) 439-3034"
        },
        "geometry": {
          "coordinates": [
            -83.000634,
            40.062178
          ],
          "type": "Point"
        },
        "id": "1292821334fa71f099f29bddbe8610d8"
      },
      {
        "type": "Feature",
        "properties": {
          "LOCATION_ID": "20000",
          "LOCATION_NUMBER": "20000",
          "text": "North High Street",
          "Address": "7925 NORTH HIGH STREET",
          "Phone": "(614) 885-1023"
        },
        "geometry": {
          "coordinates": [
            -83.017221,
            40.124792
          ],
          "type": "Point"
        },
        "id": "12c8ea1c05d889a62e92a3eeb5eb3d96"
      },
      {
        "type": "Feature",
        "properties": {
          "LOCATION_ID": "8337",
          "LOCATION_NUMBER": "8337",
          "text": "N Hamilton Rd",
          "Address": "402 NORTH HAMILTON ROAD",
          "Phone": "(614) 252-2663"
        },
        "geometry": {
          "coordinates": [
            -82.87531,
            39.97121
          ],
          "type": "Point"
        },
        "id": "12da606b4a2c341380565eed51e9b251"
      },
      {
        "type": "Feature",
        "properties": {
          "LOCATION_ID": "5251168",
          "LOCATION_NUMBER": "6625",
          "text": "Diley Road Northwest",
          "Address": "7901 DILEY ROAD",
          "Phone": "(614) 722-6200"
        },
        "geometry": {
          "coordinates": [
            -82.783976,
            39.849723
          ],
          "type": "Point"
        },
        "id": "12f359e0e30d82875f9421ec140065ec"
      },
      {
        "type": "Feature",
        "properties": {
          "LOCATION_ID": "24300",
          "LOCATION_NUMBER": "24300",
          "text": "East Main Street",
          "Address": "578 EAST MAIN STREET",
          "Phone": "(614) 241-2531"
        },
        "geometry": {
          "coordinates": [
            -82.983896,
            39.958092
          ],
          "type": "Point"
        },
        "id": "12fafae3a2945f1ba60a52a68604ec21"
      },
      {
        "type": "Feature",
        "properties": {
          "LOCATION_ID": "1500",
          "LOCATION_NUMBER": "1500",
          "text": "East Cooke Road",
          "Address": "1359 EAST COOKE ROAD",
          "Phone": "none"
        },
        "geometry": {
          "coordinates": [
            -82.979626,
            40.046884
          ],
          "type": "Point"
        },
        "id": "130c9f51a26bf9781fa5acd81f439897"
      },
      {
        "type": "Feature",
        "properties": {
          "LOCATION_ID": "4077146",
          "LOCATION_NUMBER": "30191",
          "text": "43109",
          "Address": "2879 OLD BRICE ROAD",
          "Phone": "(614) 866-9386"
        },
        "geometry": {
          "coordinates": [
            -82.833255,
            39.912888
          ],
          "type": "Point"
        },
        "id": "1336e9e4c6dde0af31c1048ede5a5765"
      },
      {
        "type": "Feature",
        "properties": {
          "LOCATION_ID": "5071",
          "LOCATION_NUMBER": "5071",
          "text": "Euclid Avenue",
          "Address": "3210 EUCLID AVENUE",
          "Phone": "(216) 432-9544"
        },
        "geometry": {
          "coordinates": [
            -81.665043,
            41.50249
          ],
          "type": "Point"
        },
        "id": "137a2280e9e11420aff281b59d94a3ef"
      },
      {
        "type": "Feature",
        "properties": {
          "LOCATION_ID": "9451",
          "LOCATION_NUMBER": "9451",
          "text": "West Eighth Avenue",
          "Address": "379 WEST EIGHTH AVENUE",
          "Phone": "(614) 294-9805"
        },
        "geometry": {
          "coordinates": [
            -83.016899,
            39.992043
          ],
          "type": "Point"
        },
        "id": "137d4d653d74f83750a2e67f189afd0b"
      },
      {
        "type": "Feature",
        "properties": {
          "LOCATION_ID": "101458",
          "LOCATION_NUMBER": "6601",
          "text": "East Broad Street",
          "Address": "899 EAST BROAD STREET",
          "Phone": "(614) 722-6200"
        },
        "geometry": {
          "coordinates": [
            -82.976668,
            39.964756
          ],
          "type": "Point"
        },
        "id": "13abbeabc6937371fb5d8b1a1afd4147"
      },
      {
        "type": "Feature",
        "properties": {
          "LOCATION_ID": "31208",
          "LOCATION_NUMBER": "31208",
          "text": "Velma Ave",
          "Address": "1982 VELMA AVENUE",
          "Phone": "(614) 297-2300"
        },
        "geometry": {
          "coordinates": [
            -82.98871,
            40.00736
          ],
          "type": "Point"
        },
        "id": "13af1ee26ac653da9e07bf3f1adb099b"
      },
      {
        "type": "Feature",
        "properties": {
          "LOCATION_ID": "3813144",
          "LOCATION_NUMBER": "44060",
          "text": "Security Boulevard",
          "Address": "7500 SECURITY BOULEVARD",
          "Phone": "none"
        },
        "geometry": {
          "coordinates": [
            -76.763985,
            39.317948
          ],
          "type": "Point"
        },
        "id": "13fe316ebebd1d885e865c2bc4f8aef9"
      },
      {
        "type": "Feature",
        "properties": {
          "LOCATION_ID": "1423392",
          "LOCATION_NUMBER": "44025",
          "text": "2nd Street Southwest",
          "Address": "2100 SECOND STREET SW",
          "Phone": "(800) 424-8802"
        },
        "geometry": {
          "coordinates": [
            -77.012949,
            38.864134
          ],
          "type": "Point"
        },
        "id": "14377593a5124f9a3d3ef2e3fe08081b"
      },
      {
        "type": "Feature",
        "properties": {
          "LOCATION_ID": "3727330",
          "LOCATION_NUMBER": "10123",
          "text": "State Route 159",
          "Address": "4439 STATE ROUTE 159, SUITE G30",
          "Phone": "(866) 639-2364"
        },
        "geometry": {
          "coordinates": [
            -82.96543,
            39.39694
          ],
          "type": "Point"
        },
        "id": "1482749dffd15a2112d9339532111899"
      },
      {
        "type": "Feature",
        "properties": {
          "LOCATION_ID": "1492231",
          "LOCATION_NUMBER": "15761",
          "text": "South Main Street",
          "Address": "702 SOUTH MAIN STREET",
          "Phone": "(937) 378-6173"
        },
        "geometry": {
          "coordinates": [
            -83.902781,
            38.859269
          ],
          "type": "Point"
        },
        "id": "14af4c65a2f001fd1b81813e689ffccb"
      },
      {
        "type": "Feature",
        "properties": {
          "LOCATION_ID": "1436572",
          "LOCATION_NUMBER": "15833",
          "text": "Southgate Parkway",
          "Address": "601 SOUTHGATE PARKWAY",
          "Phone": "(740) 439-4455"
        },
        "geometry": {
          "coordinates": [
            -81.586392,
            40.017763
          ],
          "type": "Point"
        },
        "id": "14ca5f8fe1ee619959d6c9679e063f84"
      },
      {
        "type": "Feature",
        "properties": {
          "LOCATION_ID": "1972282",
          "LOCATION_NUMBER": "46420",
          "text": "S Powell Ave",
          "Address": "61 SOUTH POWELL AVENUE",
          "Phone": "(614) 351-5480"
        },
        "geometry": {
          "coordinates": [
            -83.075316,
            39.953495
          ],
          "type": "Point"
        },
        "id": "14d3357e118d0002698aee95ff3baa37"
      },
      {
        "type": "Feature",
        "properties": {
          "LOCATION_ID": "23670",
          "LOCATION_NUMBER": "23670",
          "text": "Schrock Road",
          "Address": "945 SCHROCK ROAD",
          "Phone": "(614) 880-2950"
        },
        "geometry": {
          "coordinates": [
            -82.991531,
            40.101578
          ],
          "type": "Point"
        },
        "id": "14d63a70bc17fd251304f407c0b3e676"
      },
      {
        "type": "Feature",
        "properties": {
          "LOCATION_ID": "3467479",
          "LOCATION_NUMBER": "45760",
          "text": "Palmer Rd SW",
          "Address": "15187 PALMER ROAD",
          "Phone": "(740) 927-7729"
        },
        "geometry": {
          "coordinates": [
            -82.769469,
            39.94535
          ],
          "type": "Point"
        },
        "id": "14ed3226e187bb4607bc609930e18aee"
      },
      {
        "type": "Feature",
        "properties": {
          "LOCATION_ID": "804370",
          "LOCATION_NUMBER": "34966",
          "text": "South High Street",
          "Address": "373 SOUTH HIGH STREET",
          "Phone": "(614) 462-3333"
        },
        "geometry": {
          "coordinates": [
            -82.999358,
            39.953886
          ],
          "type": "Point"
        },
        "id": "15168dfcfec4da01a72cc081e3b35a34"
      },
      {
        "type": "Feature",
        "properties": {
          "LOCATION_ID": "27625",
          "LOCATION_NUMBER": "27625",
          "text": "Cleveland Avenue",
          "Address": "5460 CLEVELAND AVENUE",
          "Phone": "none"
        },
        "geometry": {
          "coordinates": [
            -82.948829,
            40.081363
          ],
          "type": "Point"
        },
        "id": "155a3a2388aa11e4b3028b9d73267bff"
      },
      {
        "type": "Feature",
        "properties": {
          "LOCATION_ID": "100928",
          "LOCATION_NUMBER": "40157",
          "text": "Morse Rd",
          "Address": "1479 MORSE RD",
          "Phone": "(614) 470-2139"
        },
        "geometry": {
          "coordinates": [
            -82.9804,
            40.05982
          ],
          "type": "Point"
        },
        "id": "1579c9594e113d0985b1b5d356ac93df"
      },
      {
        "type": "Feature",
        "properties": {
          "LOCATION_ID": "2704816",
          "LOCATION_NUMBER": "35034",
          "text": "Cleveland Avenue",
          "Address": "5900 CLEVELAND AVENUE",
          "Phone": "(614) 444-4411"
        },
        "geometry": {
          "coordinates": [
            -82.950289,
            40.0925
          ],
          "type": "Point"
        },
        "id": "158380c31f02db9b006a033f2c663a6e"
      },
      {
        "type": "Feature",
        "properties": {
          "LOCATION_ID": "32375",
          "LOCATION_NUMBER": "32375",
          "text": "Kenny Rd",
          "Address": "2050 KENNY ROAD",
          "Phone": "(614) 995-1150"
        },
        "geometry": {
          "coordinates": [
            -83.03443,
            40.00101
          ],
          "type": "Point"
        },
        "id": "15abf3fbcab3e818fcf79e9d0ff493ec"
      },
      {
        "type": "Feature",
        "properties": {
          "LOCATION_ID": "3251460",
          "LOCATION_NUMBER": "20740",
          "text": "East Town Street",
          "Address": "393 EAST TOWN STREET",
          "Phone": "(614) 566-9108"
        },